City,Cloudiness,Country,Date,Humidity,Lat,Lng,Max Temp,Wind Speed
Martil,40,MA,1599587792,78,35.62,-5.28,77.0,13.87
Kuril'sk,81,RU,1599587792,92,45.23,147.88,62.37,2.26
Sabha,0,LY,1599587793,14,27.04,14.43,93.85,13.22
Bredasdorp,0,ZA,1599587793,88,-34.53,20.04,60.01,1.99
Avarua,100,CK,1599587793,88,-21.21,-159.78,71.6,6.93
Tuatapere,93,NZ,1599587794,72,-46.13,167.68,45.0,11.01
Mataura,16,NZ,1599587794,72,-46.19,168.86,45.0,11.01
San Patricio,75,MX,1599587794,63,19.22,-104.7,91.4,11.41
Caucaia,20,BR,1599587795,55,-3.74,-38.65,86.0,20.8
Leningradskiy,84,RU,1599587795,81,69.38,178.42,39.51,2.01
Drumheller,74,CA,1599587702,55,51.46,-112.71,52.0,10.0
Hithadhoo,46,MV,1599587795,78,-0.6,73.08,82.29,12.21
Norrtälje,3,SE,1599587665,71,59.76,18.7,64.0,4.0
Barrow,90,US,1599587695,80,71.29,-156.79,33.8,9.17
Punta Arenas,20,CL,1599587796,45,-53.15,-70.92,48.2,20.8
Rikitea,56,PF,1599587796,73,-23.12,-134.97,72.03,12.35
Busselton,0,AU,1599587796,78,-33.65,115.33,46.99,6.67
Hobart,0,AU,1599587794,70,-42.88,147.33,46.4,10.29
Ushuaia,75,AR,1599587539,81,-54.8,-68.3,42.8,6.93
Vaini,75,TO,1599587797,73,-21.2,-175.2,69.8,8.05
Pacific Grove,90,US,1599587774,77,36.62,-121.92,62.6,6.93
Mar del Plata,40,AR,1599587784,72,-38.0,-57.56,59.0,13.87
Longyearbyen,40,SJ,1599587797,69,78.22,15.64,37.4,11.41
Castro,57,BR,1599587621,45,-24.79,-50.01,80.4,6.26
Arlit,60,NE,1599587798,13,18.74,7.39,103.08,10.2
Hermanus,5,ZA,1599587639,88,-34.42,19.23,60.01,1.99
Cape Town,0,ZA,1599587564,93,-33.93,18.42,63.0,6.93
Nome,90,US,1599587798,93,64.5,-165.41,45.0,6.93
Miramar,1,US,1599587684,62,25.99,-80.23,91.0,11.41
Torbay,40,CA,1599587798,60,47.67,-52.73,69.01,23.04
Union,1,US,1599587548,54,40.63,-74.27,87.01,4.7
Yellowknife,40,CA,1599587799,58,62.46,-114.35,59.0,12.75
Yulara,0,AU,1599587799,33,-25.24,130.99,73.4,10.29
Chincha Alta,71,PE,1599587799,72,-13.41,-76.13,64.99,8.05
Nikolskoye,20,RU,1599587800,71,59.7,30.79,55.4,4.47
Hokitika,100,NZ,1599587800,79,-42.72,170.97,48.96,1.57
Kidal,40,ML,1599587800,21,18.44,1.41,99.72,11.79
Jumla,95,NP,1599587801,71,29.27,82.18,59.52,1.97
Fukuechō,100,JP,1599587801,77,32.69,128.84,77.47,9.91
Tasiilaq,20,GL,1599587801,52,65.61,-37.64,42.8,8.05
Port Alfred,0,ZA,1599587802,78,-33.59,26.89,68.54,15.93
Geraldton,0,AU,1599587802,87,-28.77,114.6,51.8,10.29
Abu Samrah,0,SY,1599587802,19,35.3,37.18,86.31,8.59
Puerto Ayora,40,EC,1599587803,60,-0.74,-90.35,75.2,17.22
Tahe,100,CN,1599587803,94,52.33,124.73,51.55,3.87
Fort Nelson,75,CA,1599587803,72,58.81,-122.7,59.0,4.7
Skjern,77,DK,1599587803,80,55.95,8.5,62.01,1.99
Upernavik,97,GL,1599587804,78,72.79,-56.15,37.54,6.85
Mehamn,92,NO,1599587632,71,71.04,27.85,53.6,10.29
Arraial do Cabo,5,BR,1599587804,65,-22.97,-42.03,82.4,5.82
Ahipara,0,NZ,1599587804,84,-35.17,173.17,47.17,3.65
Ajdabiya,0,LY,1599587805,54,30.76,20.23,81.84,14.92
Kibala,20,TD,1599587805,70,9.11,18.35,86.0,2.95
Souillac,20,MU,1599587805,83,-20.52,57.52,73.4,11.41
Atuona,74,PF,1599587805,71,-9.8,-139.03,78.12,24.74
Lorengau,97,PG,1599587806,78,-2.02,147.27,82.13,8.12
Ibrā’,3,OM,1599587806,32,22.69,58.53,90.3,8.14
Narsaq,75,GL,1599587806,65,60.92,-46.05,46.4,5.82
George Town,40,MY,1599587694,88,5.41,100.34,80.6,4.7
Ilulissat,40,GL,1599587807,80,69.22,-51.1,35.6,5.82
Codrington,4,AU,1599587807,82,-38.27,141.97,44.94,2.8
Bethel,1,US,1599587551,65,41.37,-73.41,82.99,8.05
Ribeira Grande,75,PT,1599587807,69,38.52,-28.7,77.0,10.29
Albany,27,US,1599587649,61,42.6,-73.97,84.0,6.58
Chokurdakh,100,RU,1599587808,88,70.63,147.92,41.49,9.04
Bahraich,94,IN,1599587808,73,27.58,81.6,88.0,1.99
Barra,0,BR,1599587808,29,-11.09,-43.14,91.4,5.79
Meulaboh,100,ID,1599587808,92,4.14,96.13,74.91,2.44
Savannah Bight,63,HN,1599587809,75,16.45,-85.85,84.02,7.49
Jamestown,40,US,1599587594,69,42.1,-79.24,75.2,5.82
Taoudenni,20,ML,1599587809,8,22.68,-3.98,108.82,12.17
Port Moresby,66,PG,1599587811,88,-9.44,147.18,75.06,14.5
Ketchikan,90,US,1599587811,82,55.34,-131.65,62.6,5.82
Morozovsk,94,RU,1599587811,58,48.35,41.83,73.11,7.72
Lebu,100,CL,1599587811,87,-37.62,-73.65,52.39,5.99
Waipawa,4,NZ,1599587812,76,-41.41,175.52,55.0,25.28
Dinguiraye,57,GN,1599587812,91,11.3,-10.72,75.47,3.98
‘Āhuimanu,20,US,1599587812,69,21.44,-157.84,79.0,13.87
Zelenoborskiy,2,RU,1599587813,81,66.84,32.36,52.38,7.81
Jämsä,90,FI,1599587813,100,61.86,25.19,51.8,3.36
Mersing,80,MY,1599587813,100,2.43,103.84,75.2,4.7
Bathsheba,20,BB,1599587814,66,13.22,-59.52,87.8,9.17
Sistranda,40,NO,1599587814,71,63.73,8.83,55.4,21.92
Cockburn Town,46,TC,1599587814,78,21.46,-71.14,83.43,11.14
Kapaa,75,US,1599587815,78,22.08,-159.32,80.6,14.99
Carrollton,75,US,1599587663,55,32.95,-96.89,89.01,13.87
Bandarbeyla,37,SO,1599587815,82,9.49,50.81,75.96,28.36
Carnarvon,0,AU,1599587815,93,-24.87,113.63,64.4,5.82
Aksarka,100,RU,1599587816,97,66.56,67.8,54.82,8.08
Lompoc,90,US,1599587816,82,34.64,-120.46,64.4,5.82
Pitimbu,40,BR,1599587816,58,-7.47,-34.81,84.2,13.87
Lata,91,PT,1599587816,29,40.16,-8.33,88.0,4.63
Pevek,82,RU,1599587817,94,69.7,170.31,39.69,13.11
Bluff,66,NZ,1599587817,72,-46.6,168.33,45.0,11.01
Kargat,39,RU,1599587817,94,55.2,80.28,42.58,7.34
Tarakan,100,ID,1599587706,74,3.3,117.63,81.18,2.59
São João da Barra,13,BR,1599587565,51,-21.64,-41.05,84.2,18.34
Namatanai,28,PG,1599587818,82,-3.67,152.43,79.2,6.4
Coquimbo,90,CL,1599587818,71,-29.95,-71.34,57.2,9.17
Lagoa,57,PT,1599587818,86,39.05,-27.98,72.55,15.12
Garden City,90,US,1599587784,88,42.33,-83.33,68.0,5.82
Kununurra,0,AU,1599587819,28,-15.77,128.73,68.0,2.24
Cherskiy,51,RU,1599587819,98,68.75,161.3,31.12,2.15
Beloha,0,MG,1599587819,79,-25.17,45.05,68.23,16.42
Hofn,7,IS,1599587820,54,64.25,-15.21,48.51,5.99
Lerwick,40,GB,1599587820,93,60.15,-1.15,55.4,13.87
Srednekolymsk,96,RU,1599587821,88,67.45,153.68,41.72,6.38
Newport,71,GB,1599587822,86,51.59,-3.0,66.0,1.99
Esperance,0,AU,1599587822,100,-33.87,121.9,50.0,10.29
Dezful,0,IR,1599587823,12,32.38,48.41,89.28,3.42
Dali,50,CN,1599587824,83,25.7,100.18,62.56,2.77
Kruisfontein,0,ZA,1599587824,69,-34.0,24.73,69.01,1.01
Lüderitz,0,NA,1599587825,63,-26.65,15.16,64.62,10.4
Butaritari,99,KI,1599587825,81,3.07,172.79,80.1,2.28
Ponta do Sol,20,PT,1599587825,74,32.67,-17.1,78.8,3.36
Campo Grande,62,BR,1599587826,24,-20.44,-54.65,95.0,3.36
Piura,15,PE,1599587827,33,-5.2,-80.63,88.38,12.37
Anadyr,64,RU,1599587827,86,64.75,177.48,41.0,6.71
Bengkulu,39,ID,1599587827,84,-3.8,102.27,77.59,6.06
Vanavara,98,RU,1599587828,91,60.34,102.28,46.65,9.17
Saldanha,0,ZA,1599587828,87,-33.01,17.94,59.31,5.37
Bagdarin,32,RU,1599587828,85,54.43,113.6,50.65,1.39
Flin Flon,75,CA,1599587829,45,54.77,-101.86,48.2,9.17
Tuktoyaktuk,90,CA,1599587829,93,69.45,-133.04,37.4,10.29
Esmeraldas,27,BR,1599587799,27,-19.76,-44.31,89.6,6.93
Balkanabat,0,TM,1599587829,16,39.51,54.37,76.23,13.2
Fairbanks,90,US,1599587727,93,64.84,-147.72,48.99,3.36
Shingū,80,JP,1599587830,86,33.73,135.98,72.41,5.28
Hamilton,49,US,1599587532,55,39.18,-84.53,89.01,6.06
Toppenish,1,US,1599587830,29,46.38,-120.31,63.0,11.41
Tamandaré,16,BR,1599587830,68,-8.76,-35.1,79.02,9.1
Neiafu,75,TO,1599587830,78,-18.65,-173.98,73.4,5.82
Deputatsky,92,RU,1599587831,91,69.3,139.9,34.72,3.4
Gravdal,75,NO,1599587832,87,68.12,13.5,50.0,13.87
Bambous Virieux,20,MU,1599587832,83,-20.34,57.76,73.99,11.41
Hobyo,2,SO,1599587833,80,5.35,48.53,76.68,25.93
Saint-Philippe,40,RE,1599587833,78,-21.36,55.77,73.4,11.41
Severo-Kuril'sk,100,RU,1599587833,90,50.68,156.12,49.41,17.63
Ţahţā,0,EG,1599587834,28,26.77,31.5,96.8,12.75
Sept-Îles,75,CA,1599587834,48,50.2,-66.38,62.6,18.34
Sulangan,100,PH,1599587834,74,11.14,123.72,84.2,6.8
Saint Paul Harbor,1,US,1599587835,87,57.79,-152.41,50.0,5.82
Ardmore,20,US,1599587835,48,34.17,-97.14,86.0,10.29
Aswān,0,EG,1599587836,15,24.09,32.91,99.99,18.07
Henties Bay,6,NA,1599587837,91,-22.12,14.28,54.0,1.99
Upata,49,VE,1599587838,58,8.01,-62.4,85.98,2.57
Vao,70,NC,1599587838,79,-22.67,167.48,67.03,22.44
Dalipey,95,PH,1599587839,89,16.8,120.72,65.28,3.51
Monroe,40,US,1599587717,57,43.15,-77.68,81.0,9.17
Sīrjān,0,IR,1599587839,18,29.45,55.68,73.49,14.47
Talnakh,20,RU,1599587840,71,69.49,88.4,50.0,4.47
Sabang,85,ID,1599587842,78,5.89,95.32,82.42,15.82
Cidreira,98,BR,1599587842,95,-30.18,-50.21,61.57,18.07
Pahrump,0,US,1599587843,10,36.21,-115.98,80.01,17.0
Gboko,88,NG,1599587843,82,7.32,9.0,78.73,11.07
Provideniya,100,RU,1599587843,73,64.38,-173.3,39.24,0.54
Mount Isa,0,AU,1599587845,31,-20.73,139.5,73.4,10.29
Ligayan,41,PH,1599587845,73,4.65,119.47,83.93,6.24
Cabedelo,40,BR,1599587845,58,-6.98,-34.83,84.2,13.87
San Cristobal,40,VE,1599587846,62,7.77,-72.22,86.0,4.7
Chara,6,RU,1599587846,75,56.91,118.26,53.13,0.92
Tiksi,0,RU,1599587846,75,71.69,128.87,42.12,13.69
Elizabeth City,90,US,1599587847,94,36.29,-76.25,82.99,16.11
Marawi,84,PH,1599587847,92,8.0,124.29,73.99,4.0
Zhangye,100,CN,1599587847,54,38.93,100.45,65.55,8.37
Klaksvík,39,FO,1599587848,93,62.23,-6.59,51.8,16.11
Hong Kong,98,HK,1599587702,91,22.29,114.16,81.0,7.0
Beringovskiy,0,RU,1599587848,64,63.05,179.32,43.0,3.62
Chieti,3,IT,1599587848,64,42.36,14.14,75.99,3.36
Hilo,90,US,1599587849,88,19.73,-155.09,75.2,4.65
Avilés,53,ES,1599587849,64,43.55,-5.92,71.01,13.87
Pangnirtung,20,CA,1599587850,80,66.15,-65.71,41.0,13.87
Borogontsy,3,RU,1599587850,80,62.67,131.17,40.03,1.19
Los Rastrojos,13,VE,1599587850,73,10.03,-69.24,73.4,9.17
Christchurch,90,NZ,1599587850,100,-43.53,172.63,37.0,2.24
La Ronge,75,CA,1599587851,49,55.1,-105.28,46.4,10.29
Port Blair,100,IN,1599587851,76,11.67,92.75,82.76,2.64
Tateyama,0,JP,1599587851,79,34.98,139.87,82.99,3.0
Portland,20,US,1599587555,16,45.52,-122.68,73.0,34.45
Egvekinot,60,RU,1599587852,82,66.32,-179.17,36.41,3.29
Trondheim,95,NO,1599587812,80,63.43,10.4,54.0,1.01
Norman Wells,75,CA,1599587852,93,65.28,-126.83,50.0,2.24
Thompson,90,CA,1599587772,56,55.74,-97.86,42.8,5.82
Saskylakh,0,RU,1599587852,74,71.92,114.08,44.02,7.72
Port Elizabeth,0,ZA,1599587852,88,-33.92,25.57,64.4,1.12
Kaeo,15,NZ,1599587853,3,-35.1,173.78,50.0,5.01
Dom Pedrito,82,BR,1599587853,74,-30.98,-54.67,65.46,13.42
Zilupe,99,LV,1599587854,93,56.39,28.12,52.41,12.71
Tselina,62,RU,1599587854,35,46.53,41.03,73.87,4.72
Ancud,4,CL,1599587854,60,-41.87,-73.82,55.99,3.0
Nanortalik,99,GL,1599587855,68,60.14,-45.24,43.02,2.91
Thinadhoo,62,MV,1599587855,78,0.53,72.93,83.03,13.47
Chui,8,UY,1599587855,71,-33.7,-53.46,59.99,14.12
Caravelas,38,BR,1599587856,57,-17.71,-39.25,77.99,8.41
Motomachi,23,JP,1599587856,91,43.82,144.1,69.51,4.5
Kenora,75,CA,1599587688,70,49.82,-94.43,46.4,5.82
Iqaluit,75,CA,1599587611,46,63.75,-68.51,50.0,11.41
Kiryat Gat,0,IL,1599587856,74,31.61,34.76,86.0,5.84
East London,0,ZA,1599587857,93,-33.02,27.91,66.2,10.29
Erzin,0,TR,1599587857,85,36.96,36.2,84.99,1.99
Marshall,40,US,1599587627,65,34.38,-86.33,84.99,3.36
Shimoda,13,JP,1599587857,90,34.67,138.95,73.0,1.99
Dingle,100,PH,1599587858,86,11.0,122.67,77.5,4.61
Ilula,20,TZ,1599587858,55,-7.68,36.04,64.4,5.82
Broome,1,US,1599587859,57,42.25,-75.83,84.0,8.05
Ushtobe,0,KZ,1599587859,44,45.25,77.98,52.29,4.07
Hinatuan,81,PH,1599587860,87,8.37,126.33,77.31,3.27
Hirara,70,JP,1599587860,77,24.8,125.28,83.17,9.57
La Roda,12,ES,1599587861,33,39.22,-2.15,75.2,10.29
Portobelo,99,PA,1599587861,79,9.55,-79.65,84.99,15.01
Palmer,75,US,1599587862,61,42.16,-72.33,82.99,5.82
College,90,US,1599587862,87,64.86,-147.8,48.99,6.46
Salalah,75,OM,1599587862,83,17.02,54.09,80.6,5.82
Podujevo,0,XK,1599587863,64,42.91,21.19,69.8,6.93
Shahr-e Bābak,0,IR,1599587863,20,30.12,55.12,72.28,13.09
Kushiro,23,JP,1599587863,95,42.98,144.37,67.57,1.81
Calafell,83,ES,1599587863,100,41.2,1.57,75.0,1.99
Pisco,46,PE,1599587864,72,-13.7,-76.22,64.99,8.05
Mareeba,40,AU,1599587864,88,-17.0,145.43,69.8,13.87
Touros,40,BR,1599587865,62,-5.2,-35.46,84.2,16.11
Bayir,0,TR,1599587865,54,37.27,28.22,82.4,3.36
El Dovio,75,CO,1599587865,83,4.51,-76.24,71.6,4.7
Dawson Creek,75,CA,1599587603,48,55.77,-120.24,64.4,14.99
Rocha,9,UY,1599587866,64,-34.48,-54.33,62.01,14.16
Mayo,1,US,1599587866,74,38.89,-76.51,84.2,6.93
Mamakan,94,RU,1599587866,82,57.82,114.0,59.7,1.74
Ardakān,20,IR,1599587867,16,32.31,54.02,89.6,6.93
Mahébourg,20,MU,1599587867,83,-20.41,57.7,73.4,11.41
Balabac,78,PH,1599587868,75,7.99,117.06,81.93,6.29
Karratha,0,AU,1599587868,37,-20.74,116.85,77.7,11.18
Qaanaaq,100,GL,1599587868,94,77.48,-69.36,29.01,11.27
Mahon,20,ES,1599587869,60,39.89,4.27,75.2,6.93
Vrangel',76,RU,1599587869,90,42.73,133.08,65.37,7.4
Nouna,94,BF,1599587869,86,12.73,-3.87,78.53,7.94
Sur,1,OM,1599587869,52,22.57,59.53,88.45,8.39
Sibolga,91,ID,1599587870,83,1.74,98.78,77.56,2.19
Lithgow,97,AU,1599587870,80,-33.48,150.15,57.0,5.01
Turmalina,56,BR,1599587871,26,-17.29,-42.73,89.55,3.91
Departamento de Maldonado,20,UY,1599587871,52,-34.67,-54.92,66.99,17.22
Devonport,0,AU,1599587871,81,-41.17,146.35,45.0,3.0
Den Helder,75,NL,1599587871,93,52.96,4.76,64.99,11.41
Mackenzie,1,CA,1599587872,62,55.3,-123.17,53.6,12.75
Khatanga,0,RU,1599587872,71,71.97,102.5,44.85,6.4
Sabaudia,3,IT,1599587872,60,41.3,13.03,82.0,4.18
Centralia,36,US,1599587873,24,46.72,-122.95,73.0,1.01
Kahului,1,US,1599587682,65,20.89,-156.47,78.8,4.7
Rosarito,90,MX,1599587873,78,32.33,-117.03,73.4,8.61
Umarkot,0,PK,1599587873,66,25.36,69.74,87.78,13.6
Sevierville,1,US,1599587874,58,35.87,-83.56,84.99,6.93
São Filipe,100,CV,1599587874,82,14.9,-24.5,80.47,18.05
Kavaratti,96,IN,1599587874,81,10.57,72.64,82.33,9.84
Kavieng,87,PG,1599587874,78,-2.57,150.8,82.72,13.02
Carutapera,20,BR,1599587854,60,-1.2,-46.02,87.04,12.46
Iseyin,44,NG,1599587875,89,7.97,3.6,75.58,4.61
Grindavik,75,IS,1599587875,81,63.84,-22.43,48.2,5.82
Timizart,86,DZ,1599587875,86,36.8,4.27,68.99,4.0
Abéché,66,TD,1599587876,62,13.83,20.83,84.04,2.93
Ostrovnoy,0,RU,1599587876,80,68.05,39.51,50.67,13.47
Nuuk,75,GL,1599587877,70,64.18,-51.72,44.6,11.41
Båtsfjord,86,NO,1599587877,71,70.63,29.72,55.4,13.87
Havøysund,75,NO,1599587877,76,71.0,24.66,53.6,19.46
Kinkala,93,CG,1599587878,61,-4.36,14.76,82.4,9.17
New Norfolk,0,AU,1599587878,75,-42.78,147.06,43.0,3.0
Krasnogorodsk,100,RU,1599587878,94,56.83,28.28,52.34,13.2
Douentza,56,ML,1599587879,42,15.0,-2.95,90.95,12.37
Berlevåg,20,NO,1599587879,66,70.86,29.09,55.4,12.75
Port Hueneme,90,US,1599587879,94,34.15,-119.2,73.4,5.68
Coahuayana Viejo,75,MX,1599587879,83,18.73,-103.68,75.2,3.98
Morro Bay,20,US,1599587880,82,35.37,-120.85,73.4,8.05
Saint George,1,US,1599587853,20,37.1,-113.58,66.99,16.11
Bhisho,0,ZA,1599587880,93,-32.85,27.44,66.2,10.29
Paita,40,PE,1599587880,54,-5.09,-81.11,78.8,6.93
Sapouy,93,BF,1599587881,91,11.55,-1.77,75.4,5.3
Mount Gambier,40,AU,1599587783,93,-37.83,140.77,42.8,1.77
Monrovia,75,LR,1599587881,94,6.3,-10.8,77.0,4.7
Richards Bay,0,ZA,1599587882,70,-28.78,32.04,67.89,10.18
Kloulklubed,90,PW,1599587882,88,7.04,134.26,75.2,11.41
Atambua,100,ID,1599587882,87,-9.11,124.89,68.16,5.39
Plettenberg Bay,0,ZA,1599587714,42,-34.05,23.37,71.92,4.25
Charters Towers,21,AU,1599587883,91,-20.1,146.27,58.84,10.8
Puerto del Rosario,0,ES,1599587883,69,28.5,-13.86,80.6,10.29
Guerrero Negro,0,MX,1599587883,48,27.98,-114.06,85.12,4.09
Kaitangata,0,NZ,1599587884,74,-46.28,169.85,46.99,7.99
Tsuyama,2,JP,1599587884,95,35.05,134.0,75.0,0.72
Shaoyang,85,CN,1599587884,87,27.23,111.45,75.42,1.28
Ngunguru,38,NZ,1599587885,3,-35.62,174.5,50.0,5.01
Sablé-sur-Sarthe,22,FR,1599587885,50,47.84,-0.33,77.0,4.7
Constitución,100,CL,1599587885,85,-35.33,-72.42,51.8,12.06
Airai,86,TL,1599587885,78,-8.93,125.41,55.78,3.33
St. George's,20,GD,1599587886,70,12.06,-61.75,87.8,11.41
Dubti,0,ET,1599587886,27,11.74,41.09,99.28,3.49
Havre-St-Pierre,1,CA,1599587886,77,50.23,-63.6,59.0,25.28
Rach Gia,100,VN,1599587886,77,10.02,105.08,83.28,9.28
Hegang,100,CN,1599587887,100,47.4,130.37,61.79,12.88
Mujiayingzi,28,CN,1599587887,65,42.12,118.78,58.53,9.86
Urengoy,43,RU,1599587887,74,65.97,78.37,46.13,7.65
Ýpsonas,0,CY,1599587888,88,34.69,32.96,82.4,13.87
Korla,0,CN,1599587888,29,41.76,86.15,72.32,11.52
Nouadhibou,20,MR,1599587888,74,20.93,-17.03,87.8,12.75
Rawson,98,AR,1599587889,37,-43.3,-65.1,64.4,28.12
Gornozavodsk,98,RU,1599587889,94,58.38,58.32,52.48,3.56
Acapulco de Juárez,75,MX,1599587889,70,16.86,-99.89,86.0,2.24
Olinda,40,BR,1599587890,61,-8.01,-34.86,82.4,10.29
Bétaré Oya,71,CM,1599587890,95,5.6,14.08,69.53,3.42
Tigre,75,AR,1599587890,52,-34.43,-58.58,69.01,16.11
Vila Velha,20,BR,1599587655,69,-20.33,-40.29,80.6,20.8
Sitka,99,US,1599587890,87,57.05,-135.33,60.37,2.48
Uglovskoye,53,RU,1599587891,83,51.36,80.19,45.1,6.02
Tautira,20,PF,1599587891,73,-17.73,-149.15,77.0,2.24
Husavik,40,IS,1599587891,81,66.04,-17.34,44.6,16.11
Tura,99,IN,1599587766,94,25.52,90.22,74.86,3.4
Pinsk,100,BY,1599587892,76,52.12,26.1,56.64,10.6
Kumertau,15,RU,1599587892,60,52.77,55.78,57.07,3.83
Luleå,11,SE,1599587893,87,65.58,22.15,53.6,4.7
Bouna,65,CI,1599587893,81,9.27,-3.0,78.64,3.42
Labuhan,34,ID,1599587893,80,-6.88,112.21,78.64,7.29
Ozernovskiy,91,RU,1599587893,90,51.5,156.52,49.51,11.01
Fortuna,1,US,1599587894,68,40.6,-124.16,66.2,4.7
Ormara,0,PK,1599587894,84,25.21,64.64,82.18,9.33
Finschhafen,89,PG,1599587894,81,-6.6,147.87,78.55,5.14
Isangel,100,VU,1599587894,85,-19.55,169.27,69.4,10.02
Molina,90,CL,1599587895,71,-35.12,-71.28,57.0,6.93
Santa Marta,75,CO,1599587698,79,11.24,-74.2,84.2,17.22
Rome,90,US,1599587645,57,43.21,-75.46,81.0,5.55
Emerald,0,AU,1599587895,82,-23.53,148.17,60.01,6.33
Vernon,1,CA,1599587896,38,50.26,-119.27,60.01,5.82
Sinnamary,28,GF,1599587896,61,5.38,-52.95,87.28,7.99
Luang Prabang,89,LA,1599587896,88,19.89,102.13,74.75,1.28
Riyadh,0,SA,1599587694,20,24.69,46.72,95.0,3.36
Catuday,100,PH,1599587897,80,16.29,119.81,80.78,5.95
Chakradharpur,100,IN,1599587897,83,22.7,85.63,79.83,3.04
Clyde River,75,CA,1599587897,100,70.47,-68.59,35.6,10.29
Berezovyy,100,RU,1599587898,91,51.67,135.7,51.31,8.9
Viedma,95,AR,1599587898,53,-40.81,-63.0,64.99,11.01
Okhotsk,2,RU,1599587899,62,59.38,143.3,47.41,9.26
Alyangula,1,AU,1599587900,93,-13.85,136.42,66.2,5.68
Katsuura,0,JP,1599587901,74,35.13,140.3,82.4,11.41
Muli,80,MV,1599587902,80,2.92,73.57,82.85,12.28
Urucará,28,BR,1599587902,21,-2.54,-57.76,103.01,5.12
Alofi,100,NU,1599587902,88,-19.06,-169.92,71.6,12.75
Cap-aux-Meules,75,CA,1599587903,82,47.38,-61.86,68.0,17.22
Otradnoye,87,RU,1599587677,70,59.78,30.82,55.0,5.32
Banda Aceh,98,ID,1599587703,77,5.56,95.32,79.7,10.11
Kutum,43,SD,1599587903,61,14.2,24.67,79.07,1.95
Jaguarari,63,BR,1599587903,47,-10.26,-40.2,80.17,13.24
Paka,93,MY,1599587904,94,4.64,103.44,77.0,5.7
Magdagachi,92,RU,1599587904,84,53.45,125.8,51.91,5.41
Mazamari,87,PE,1599587905,74,-11.33,-74.53,77.79,3.36
Port-Gentil,40,GA,1599587905,78,-0.72,8.78,78.8,16.87
Cabo San Lucas,5,MX,1599587905,88,22.89,-109.91,87.8,5.82
Caconda,0,AO,1599587905,24,-13.73,15.07,65.53,5.61
Channel-Port aux Basques,43,CA,1599587906,92,47.57,-59.14,62.8,12.46
Ranong,100,TH,1599587906,81,9.97,98.63,80.4,5.08
Coruripe,4,BR,1599587906,71,-10.13,-36.18,78.67,11.95
San Isidro,75,PE,1599587907,68,-12.12,-77.05,66.2,9.17
Mayumba,95,GA,1599587907,86,-3.43,10.66,75.56,10.96
Abu Kamal,0,SY,1599587907,15,34.45,40.92,92.8,9.75
Makokou,66,GA,1599587907,82,0.57,12.86,73.94,1.66
Takoradze,30,GH,1599587908,86,4.88,-1.76,76.77,12.01
Talaya,53,RU,1599587908,94,61.38,152.75,32.79,7.25
Kiama,100,AU,1599587908,87,-34.68,150.87,64.0,3.0
Waliso,25,ET,1599587908,87,8.53,37.98,57.88,1.86
Snezhnogorsk,78,RU,1599587908,81,69.19,33.25,50.0,6.71
Martapura,29,ID,1599587909,100,-3.42,114.85,75.2,1.12
Ürümqi,0,CN,1599587648,48,43.8,87.6,62.6,4.47
Port Augusta,90,AU,1599587909,82,-32.5,137.77,57.2,12.75
Manicoré,34,BR,1599587909,22,-5.81,-61.3,101.82,3.15
Pouembout,59,NC,1599587909,88,-21.13,164.9,63.88,8.1
Adeje,9,ES,1599587910,24,28.12,-16.73,93.2,24.16
Bafra,40,TR,1599587910,83,41.57,35.91,71.6,5.3
Topchānchi,100,IN,1599587911,78,23.9,86.2,82.11,1.61
Saint Anthony,90,US,1599587666,66,45.02,-93.22,52.0,5.82
La Cruz,15,MX,1599587911,66,23.92,-106.9,86.05,3.4
Yārāda,75,IN,1599587911,83,17.65,83.27,84.2,2.24
Zhigansk,2,RU,1599587912,80,66.77,123.37,40.91,9.73
Meiktila,100,MM,1599587912,88,20.87,95.87,76.53,12.73
Arrondissement de Gap,10,FR,1599587912,44,44.67,6.0,72.0,1.99
Lázaro Cárdenas,26,MX,1599587912,68,17.96,-102.2,85.37,3.58
Darnah,0,LY,1599587913,72,32.77,22.64,78.22,17.16
Hambantota,100,LK,1599587913,80,6.12,81.12,80.85,16.44
Dikson,100,RU,1599587913,88,73.51,80.55,44.83,23.22
Calvinia,0,ZA,1599587913,36,-31.47,19.78,67.23,4.45
Yining,100,CN,1599587914,82,29.04,114.56,72.25,1.72
Dunedin,0,NZ,1599587914,74,-45.87,170.5,46.99,5.37
Gemeente Venlo,80,NL,1599587914,78,51.37,6.17,66.99,5.06
Williston,0,US,1599587766,54,48.15,-103.62,44.01,1.99
Beitbridge,0,ZW,1599587914,49,-22.22,30.0,70.16,11.56
Maragogi,22,BR,1599587725,72,-9.01,-35.22,78.12,9.37
Sovetskiy,65,RU,1599587915,95,61.36,63.58,50.52,5.5
Hualmay,50,PE,1599587915,66,-11.1,-77.61,67.15,10.83
Pastavy,100,BY,1599587915,87,55.12,26.83,54.12,16.51
Aklavik,90,CA,1599587915,93,68.22,-135.01,42.8,3.36
Kokopo,36,PG,1599587915,83,-4.35,152.26,77.58,7.85
Caluquembe,0,AO,1599587916,24,-13.78,14.68,65.53,5.03
Vestmannaeyjar,90,IS,1599587916,81,63.44,-20.27,48.2,14.99
Kirakira,42,SB,1599587916,83,-10.45,161.92,77.58,11.7
Abashiri,21,JP,1599587917,94,44.02,144.27,69.62,5.55
Neepawa,40,CA,1599587917,45,50.23,-99.47,48.2,9.17
Albacete,2,ES,1599587917,33,38.83,-2.0,75.2,10.29
Zhaoyuan,4,CN,1599587917,91,37.36,120.4,70.0,5.53
Faanui,6,PF,1599587917,77,-16.48,-151.75,77.72,16.82
Manta,40,EC,1599587918,78,-0.95,-80.73,77.0,10.29
Āsosa,76,ET,1599587918,100,10.07,34.53,62.17,1.63
Pangody,100,RU,1599587918,85,65.85,74.49,50.56,12.86
Lokosovo,12,RU,1599587919,82,61.13,74.82,43.63,3.18
Zhenhaicun,20,CN,1599587919,94,24.26,118.09,78.8,2.24
Mastic Beach,1,US,1599587919,48,40.77,-72.85,82.4,7.02
Comodoro Rivadavia,40,AR,1599587862,38,-45.87,-67.5,60.8,28.86
Longkou,0,CN,1599587919,78,37.65,120.33,71.28,11.52
Mbini,40,GQ,1599587920,88,1.57,9.61,80.6,12.75
Vanimo,16,PG,1599587920,86,-2.67,141.3,78.28,4.56
Soyo,88,AO,1599587920,85,-6.13,12.37,74.21,9.89
Kiunga,82,PG,1599587920,95,-6.12,141.29,74.17,3.8
Adrar,23,MR,1599587920,12,20.5,-10.07,103.89,8.61
Margate,61,GB,1599587921,79,51.38,1.39,73.0,1.99
Wanaka,0,NZ,1599587921,75,-44.7,169.15,38.88,7.81
Vila Franca do Campo,20,PT,1599587921,78,37.72,-25.43,77.0,11.41
Lopandino,40,RU,1599587921,76,52.47,34.82,53.82,10.33
Panabá,34,MX,1599587922,54,21.28,-88.27,89.42,5.39
Nantucket,75,US,1599587922,83,41.28,-70.1,71.6,5.82
Vaitape,5,PF,1599587922,75,-16.52,-151.75,78.58,16.78
Saint-Augustin,100,CA,1599587922,92,51.23,-58.65,58.24,26.98
Torata,71,PE,1599587923,22,-17.08,-70.84,68.86,11.1
Batticaloa,90,LK,1599587923,71,7.71,81.69,81.99,2.66
Montague,27,US,1599587889,65,42.54,-72.54,82.99,5.95
Koslan,100,RU,1599587923,93,63.46,48.9,56.91,8.75
Udachny,0,RU,1599587923,82,66.42,112.4,38.66,3.71
Mahuva,31,IN,1599587924,76,21.09,71.76,83.28,8.68
Kerema,99,PG,1599587924,88,-7.96,145.78,77.47,11.79
Zlatograd,2,BG,1599587924,60,41.38,25.1,80.01,8.48
Aasiaat,29,GL,1599587924,81,68.71,-52.87,36.66,10.63
Obo,65,CF,1599587924,91,5.4,26.49,71.4,2.33
Moose Factory,75,CA,1599587925,62,51.26,-80.61,53.6,16.11
Dehlorān,8,IR,1599587925,9,32.69,47.27,99.34,14.36
Araouane,15,ML,1599587925,20,18.9,-3.53,102.22,14.27
Goderich,100,CA,1599587701,80,43.75,-81.72,59.0,15.37
Tadine,89,NC,1599587925,82,-21.55,167.88,68.04,19.51
Teguise,0,ES,1599587926,58,29.06,-13.56,86.0,20.8
Havelock,75,US,1599587926,78,34.88,-76.9,79.0,6.93
Ondjiva,0,AO,1599587926,19,-17.07,15.73,74.1,7.36
Arua,49,UG,1599587926,92,3.02,30.91,64.26,1.45
Quatre Cocos,20,MU,1599587927,83,-20.21,57.76,73.99,11.41
Jalu,0,LY,1599587927,26,29.03,21.55,83.89,2.98
Adolfo López Mateos,5,MX,1599587927,50,28.47,-107.3,77.0,8.99
Faya,20,SA,1599587927,77,18.39,42.45,71.6,5.82
Gao,9,ML,1599587928,28,16.64,1.64,97.66,9.86
Nan,98,TH,1599587928,96,18.83,100.67,74.08,0.38
Kushima,4,JP,1599587928,88,31.46,131.23,72.68,3.18
Cabra,28,ES,1599587848,40,37.47,-4.44,82.0,3.0
The Valley,20,AI,1599587928,74,18.22,-63.06,89.6,12.75
Naze,39,JP,1599587928,100,28.37,129.48,77.0,2.24
Aksha,0,RU,1599587929,83,50.28,113.29,52.39,1.72
Ust-Kuyga,83,RU,1599587929,83,70.02,135.6,39.33,4.47
Buea,75,CM,1599587929,100,4.15,9.24,75.2,1.12
Cap Malheureux,47,MU,1599587929,81,-19.98,57.61,73.99,5.99
Nālūt,92,LY,1599587930,14,30.33,10.85,92.98,7.11
Erenhot,0,CN,1599587930,52,43.65,111.98,62.56,4.76
Goundi,44,TD,1599587930,93,9.36,17.37,75.42,3.22
Along,85,IN,1599587930,89,28.17,94.77,73.17,0.76
Puro,100,PH,1599587930,82,12.48,123.38,81.7,8.12
Chitral,8,PK,1599587931,41,35.85,71.79,71.37,2.01
Nioro,38,GM,1599587931,83,13.35,-15.75,82.04,8.01
Aksu,17,CN,1599587931,25,41.12,80.26,69.98,3.53
Petropavlovsk-Kamchatskiy,57,RU,1599587931,93,53.05,158.65,44.6,4.47
Mae Ramat,100,TH,1599587932,93,16.98,98.52,74.91,0.54
Glace Bay,75,CA,1599587932,78,46.2,-59.96,77.0,10.29
Urrutia,62,HN,1599587932,67,14.74,-87.04,82.83,3.13
Kulhudhuffushi,54,MV,1599587932,81,6.62,73.07,82.6,20.51
Kota Bharu,20,MY,1599587932,88,6.13,102.24,80.6,2.24
Enid,40,US,1599587891,55,36.4,-97.88,87.8,18.34
Nola,49,IT,1599587933,57,40.92,14.53,82.99,3.36
Altay,49,CN,1599587933,44,47.87,88.12,52.29,4.29
Limbang,75,MY,1599587933,94,4.75,115.0,78.8,1.12
Codajás,71,BR,1599587683,30,-3.84,-62.06,97.93,4.65
Sivaki,100,RU,1599587933,82,52.63,126.75,54.41,9.22
Harlingen,40,US,1599587786,70,26.19,-97.7,90.0,10.29
Banyo,81,CM,1599587934,92,6.75,11.82,66.85,3.47
Spornoye,20,RU,1599587934,76,50.84,37.29,53.6,8.95
Mulegé,31,MX,1599587934,41,26.88,-111.98,91.94,3.11
Licheng,75,CN,1599587934,83,23.3,113.83,84.99,2.13
Mahajanga,20,MG,1599587935,69,-15.72,46.32,77.0,3.36
Kudahuvadhoo,93,MV,1599587935,79,2.67,72.89,82.8,13.96
Batagay,100,RU,1599587935,73,67.63,134.63,45.05,1.36
Sovetskaya Gavan',100,RU,1599587935,97,48.97,140.29,57.36,5.64
Kota Kinabalu,20,MY,1599587935,94,5.97,116.07,78.8,3.36
Tsimmerbude,75,RU,1599587936,82,54.67,20.13,62.6,20.13
Kungurtug,11,RU,1599587936,71,50.6,97.52,42.78,2.19
Bella Union,98,UY,1599587936,76,-30.28,-57.6,64.6,10.4
Kamen'-na-Obi,48,RU,1599587681,93,53.79,81.34,43.97,7.09
Şabyā,74,SA,1599587848,66,17.15,42.63,91.4,5.61
Puri,40,IN,1599587936,100,19.8,85.85,78.8,15.26
Khani,75,GE,1599587937,88,41.96,42.96,71.6,3.36
Roald,75,NO,1599587937,76,62.58,6.13,55.4,24.16
Lavrentiya,100,RU,1599587937,77,65.58,-171.0,37.45,5.46
Maniitsoq,61,GL,1599587937,65,65.42,-52.9,42.12,8.12
Derby,75,GB,1599587937,69,52.92,-1.48,73.4,12.75
Guhāgar,100,IN,1599587937,87,17.48,73.19,79.81,5.1
San Luis,81,AR,1599587938,37,-33.3,-66.34,70.48,22.46
Betioky,16,MG,1599587938,61,-23.72,44.38,71.73,10.83
Surgut,3,RU,1599587938,100,61.25,73.42,41.0,2.59
Paracuru,24,BR,1599587938,73,-3.41,-39.03,79.0,18.01
Kampong Cham,100,KH,1599587939,83,11.99,105.46,81.25,5.68
North Bend,1,US,1599587939,16,43.41,-124.22,77.0,10.29
Cayenne,24,GF,1599587863,70,4.93,-52.33,86.0,11.41
Santa Pola,20,ES,1599587939,53,38.19,-0.57,77.0,13.87
Jinchang,100,CN,1599587939,68,38.5,102.17,61.29,4.14
Kumphawapi,89,TH,1599587837,77,17.11,103.01,82.99,4.21
Oranjemund,0,NA,1599587940,72,-28.55,16.43,62.6,4.43
Port Hardy,5,CA,1599587940,76,50.7,-127.42,57.2,4.7
Kimbe,45,PG,1599587940,88,-5.55,150.14,75.07,4.85
Paamiut,100,GL,1599587940,67,61.99,-49.67,41.79,19.37
Flinders,100,AU,1599587940,80,-34.58,150.86,64.0,7.0
Luorong,70,CN,1599587941,84,24.41,109.61,76.46,0.45
Djebeniana,20,TN,1599587941,69,35.03,10.91,82.4,10.29
Varna,3,BG,1599587941,78,43.22,27.92,72.0,5.32
Jasper,20,US,1599587941,55,37.2,-94.35,87.8,14.99
Fatsa,40,TR,1599587942,94,41.03,37.5,73.4,2.24
Ulladulla,90,AU,1599587942,100,-35.35,150.47,61.0,12.75
Trebisacce,0,IT,1599587942,50,39.87,16.53,81.0,2.66
Mikuni,20,JP,1599587942,88,36.22,136.15,75.2,3.36
Lethem,53,GY,1599587943,49,3.38,-59.8,92.05,3.58
Altagracia de Orituco,90,VE,1599587943,69,9.86,-66.38,83.21,3.69
Bilibino,95,RU,1599587943,92,68.05,166.44,33.71,1.97
Altamira,75,BR,1599587944,52,-3.2,-52.21,93.2,8.05
Poykovskiy,6,RU,1599587944,100,61.23,73.33,41.0,2.62
Wittingen,75,DE,1599587944,88,52.73,10.74,64.99,9.17
Sharjah city,0,AE,1599587944,67,25.36,55.4,95.0,5.82
Nelson Bay,89,AU,1599587944,93,-32.72,152.15,57.99,6.93
Agía Galíni,0,GR,1599587944,52,35.1,24.68,82.0,11.01
Baruun-Urt,0,MN,1599587945,75,46.68,113.28,51.33,5.61
